{
  "alsfeld":
  [
    { "id":"1",
      "title":"Jochen Müller",
      "address":"Alicestr. 17",
      "postal":"36304",
      "location":"Alsfeld",
      "languages":["uk", "ru", "fr"]},
    { "id":"2",
      "title":"Dr.med. Kolb-Fricke, Hans-Walter Müller",
      "address":"Lutherstr. 8",
      "postal":"36304",
      "location":"Alsfeld",
      "languages":["uk"]},
    { "id":"3",
      "title":"Dr.med. Birgit Amthauer",
      "address":"Jahnstra. 7",
      "postal":"36304",
      "location":"Alsfeld",
      "languages":["uk"]},
    { "id":"4",
      "title":"Mach, Erhardt-Gerst",
      "address":"Schwabenröder Str. 4",
      "postal":"36304",
      "location":"Alsfeld",
      "languages":["uk"]}
  ],
  "lauterbach":
  [
    { "id":"1",
      "title":"Drs.med. Pinterowitsch, Knipp & Farkas",
      "address":"Goldhelg 44",
      "postal":"36341",
      "location":"Lauterbach",
      "languages":["uk"]},
    { "id":"2",
      "title":"Drs.med. Schneider",
      "address":"Hainigstr. 38",
      "postal":"36341",
      "location":"Lauterbach",
      "languages":["uk"]},
    { "id":"3",
      "title":"Dr.med. Christof Schwarzer",
      "address":"Kanalstr. 6",
      "postal":"36341",
      "location":"Lauterbach",
      "languages":["uk"]},
    { "id":"4",
      "title":"Dr.med. Rainer Georg",
      "address":"Vogelsbergstr. 28",
      "postal":"36341",
      "location":"Lauterbach",
      "languages":["uk"]},
    { "id":"5",
      "title":"Thomas Götz",
      "address":"Vogelsbergstr. 44",
      "postal":"36341",
      "location":"Lauterbach",
      "languages":["uk"]},
    { "id":"6",
      "title":"Drs.med. Heuser-Gothe & Mai",
      "address":"Kanalstr. 1-3",
      "postal":"36341",
      "location":"Lauterbach",
      "languages":["uk"]},
    { "id":"7",
      "title":"Joachim Lang",
      "address":"Adolf-Spieß-Str. 10",
      "postal":"36341",
      "location":"Lauterbach",
      "languages":["uk"]}
  ]
}